[
  {
     "location":{
        "address":"Arcisstraße 17, München",
        "latitude":48.147420,
        "longitude":11.567220
     },
     "name":"Mensa Arcisstraße",
     "canteen_id":"mensa-arcisstr"
  },
  {
     "location":{
        "address":"Lichtenbergstraße 2, Garching",
        "latitude":48.268132,
        "longitude":11.672263
     },
     "name":"Mensa Garching",
     "canteen_id":"mensa-garching"
  },
  {
     "location":{
        "address":"Leopoldstraße 13a, München",
        "latitude":48.156311,
        "longitude":11.582446
     },
     "name":"Mensa Leopoldstraße",
     "canteen_id":"mensa-leopoldstr"
  },
  {
     "location":{
        "address":"Lothstraße 13d, München",
        "latitude":48.153989,
        "longitude":11.552424
     },
     "name":"Mensa Lothstraße",
     "canteen_id":"mensa-lothstr"
  },
  {
     "location":{
        "address":"Großhaderner Straße 44, Plategg",
        "latitude":48.109824,
        "longitude":11.460006
     },
     "name":"Mensa Martinsried",
     "canteen_id":"mensa-martinsried"
  },
  {
     "location":{
        "address":"Am Stadtpark 20, München",
        "latitude":48.141568,
        "longitude":11.451119
     },
     "name":"Mensa Pasing",
     "canteen_id":"mensa-pasing"
  },
  {
     "location":{
        "address":"Maximus-von-Imhof-Forum 5, Freising",
        "latitude":48.399590,
        "longitude":11.723147
     },
     "name":"Mensa Weihenstephan",
     "canteen_id":"mensa-weihenstephan"
  },
  {
     "location":{
        "address":"Leopoldstraße 13A, München",
        "latitude":48.156486,
        "longitude":11.581872
     },
     "name":"StuBistro Arcisstraße",
     "canteen_id":"stubistro-arcisstr"
  },
  {
     "location":{
        "address":"Goethestraße 70, München",
        "latitude":48.131396,
        "longitude":11.558264
     },
     "name":"StuBistro Goethestraße",
     "canteen_id":"stubistro-goethestr"
  },
  {
     "location":{
        "address":"Butenandtstraße 13, Gebäude F, München",
        "latitude":48.113630,
        "longitude":11.465030
     },
     "name":"StuBistro Großhadern",
     "canteen_id":"stubistro-großhadern"
  },
  {
     "location":{
        "address":"Hochschulstraße 1, Rosenheim",
        "latitude":47.867344,
        "longitude":12.107559
     },
     "name":"StuBistro Rosenheim",
     "canteen_id":"stubistro-rosenheim"
  },
  {
     "location":{
        "address":"Schellingstraße 3, München",
        "latitude":48.148893,
        "longitude":11.579027
     },
     "name":"StuBistro Schellingstraße",
     "canteen_id":"stubistro-schellingstr"
  },
  {
     "location":{
        "address":"Adalbertstraße 5, München",
        "latitude":48.151507,
        "longitude":11.581033
     },
     "name":"StuCafé Adalbertstraße",
     "canteen_id":"stucafe-adalbertstr"
  },
  {
     "location":{
        "address":"Alte Akademie 1, Freising",
        "latitude":48.394800,
        "longitude":11.729338
     },
     "name":"StuCafé Akademie Weihenstephan",
     "canteen_id":"stucafe-akademie-weihenstephan"
  },
  {
     "location":{
        "address":"Boltzmannstraße 15, Garching",
        "latitude":48.265768,
        "longitude":11.667593
     },
     "name":"StuCafé Boltzmannstraße",
     "canteen_id":"stucafe-boltzmannstr"
  },
  {
     "location":{
        "address":"Lichtenbergstraße 2, Garching",
        "latitude":48.267426,
        "longitude":11.671101
     },
     "name":"StuCafé in der Mensa Garching",
     "canteen_id":"stucafe-garching"
  },
  {
     "location":{
        "address":"Karlstraße 6, München",
        "latitude":48.142759,
        "longitude":11.568432
     },
     "name":"StuCafé Karlstraße",
     "canteen_id":"stucafe-karlstr"
  },
  {
     "location":{
        "address":"Am Stadtpark 20, München",
        "latitude":48.141568,
        "longitude":11.451119
     },
     "name":"StuCafé Pasing",
     "canteen_id":"stucafe-pasing"
  },
  {
     "location":{
        "address":"Boltzmannstraße 2, 85748 Garching",
        "latitude":48.262371,
        "longitude":11.672702
     },
     "name":"IPP Bistro Garching",
     "canteen_id":"ipp-bistro"
  },
  {
     "location":{
        "address":"Boltzmannstraße 3, 85748 Garching",
        "latitude":48.262408,
        "longitude":11.668028
     },
     "name":"FMI Bistro Garching",
     "canteen_id":"fmi-bistro"
  },
  {
     "location":{
        "address":"Ismaninger Straße 22, 81675 München",
        "latitude":48.136569,
        "longitude":11.5993226
     },
     "name":"Mediziner Mensa",
     "canteen_id":"mediziner-mensa"
  }
]